Time,Tag,Code,Log
1680747192,GNSS,0,
1680747194,GNSS,0,"$GNRMC,021256.000,A,2649.284805,N,07551.406377,E,0.00,157.42,060423,,,D,V*06"
1680747196,GNSS,0,
1680747198,GNSS,0,
1680747200,GNSS,0,"$GNRMC,021313.000,A,2649.284964,N,07551.405985,E,0.00,157.42,060423,,,"
1680747202,GNSS,0,
1680747204,GNSS,0,
1680747206,GNSS,0,"$GNRMC,021314.000,A,2649.285019,N,07551.405741,E,0.00,157.42,060423,,,D,V*07"
1680747208,GNSS,0,
1680747210,GNSS,0,"$GNRMC,021315.000,A,2649.285079,N,"
1680747212,GNSS,0,
1680747214,GNSS,0,
1680747216,GNSS,0,"$GNRMC,021316.000,A,2649.284953,N,07551.405374,E,0.00,157.42,060423,,,D,V*01"
1680747218,GNSS,0,"$GNRMC,021332.000,A,2649.285908,N,07551.405122,E,0.00,157.42,060423,,,D,V*09"
1680747220,GNSS,0,
1680747222,GNSS,0,"$GNRMC,021333.000,A,2649.285957,N,07551.4050"
1680747224,GNSS,0,
1680747226,GNSS,0,
1680747228,GNSS,0,"$GNRMC,021334.000,A,2649.285957,N,07551.405076,E,0.00,157.42,060423,,,D,V*05"
1680747230,GNSS,0,
1680747232,GNSS,0,
1680747234,GNSS,0,
1680747236,GNSS,0,
1680747238,GNSS,0,"$GNRMC,021351.000,A,2649.283557,N,07551.408246,E,0.00,157.42,060423,,,D,V*00"
1680747240,GNSS,0,
1680747242,GNSS,0,"$GNRMC,021352.000,A,2649.283512,N,07551.408086,E,0.00,157.42,060423,,,D,V*0C"
1680747244,GNSS,0,
1680747246,GNSS,0,
1680747248,GNSS,0,"$GNRMC,021353.000,A,2649.283512,N,07551.408086,E,0.00,157.42,060423,,,D,V*0D"
1680747250,GNSS,0,
1680747252,GNSS,0,"$GNRMC,021354.000,A,2649.283512,N,07551.408086,E,0.00,157.42"
1680747254,GNSS,0,
1680747256,GNSS,0,
1680747258,GNSS,0,
1680747260,GNSS,0,"$GNRMC,021411.000,A,2649.281614,N,07551.407775,E,0.00,157.42,060423,,,D,V*0F"
1680747262,GNSS,0,
1680747264,GNSS,0,
1680747266,GNSS,0,"$GNRMC,021412.000,A,2649.281410,N,07551.407781,E,0.00,157.42,060423,,,D,V*01"
1680747268,GNSS,0,
1680747270,GNSS,0,"$GNRMC,021413.000,A,2649.281379,N,07551.407395,E,0.00,157.42,060423,,,D,V*09"
1680747272,GNSS,0,
1680747274,GNSS,0,
1680747276,GNSS,0,
1680747278,GNSS,0,"$GNRMC,021430.000,A,2649.281460,N,07551.406906,E,0.00,157.42,060423,,,D,V*06"
1680747280,GNSS,0,
1680747282,GNSS,0,"$GNRMC,02"
1680747284,GNSS,0,
1680747286,GNSS,0,
1680747288,GNSS,0,"$GNRMC,021432.000,A,2649.281460,N,07551.406906,E,0.00,157.42,060423,,,D,V*04"
1680747290,GNSS,0,
1680747292,GNSS,0,
1680747294,GNSS,0,
1680747296,GNSS,0,"$GNRMC,021449.000,A,2649.281420,N,07551.404993,E,0.00,157.42,060423,,,D,V*02"
1680747298,GNSS,0,
1680747300,GNSS,0,"$GNRMC,021450."
1680747302,GNSS,0,
1680747304,GNSS,0,
1680747306,GNSS,0,"$GNRMC,021451.000,A,2649.281420,N,07551.404993,E,0.00,157.42,060423,,,D,V*0B"
1680747308,GNSS,0,
1680747310,GNSS,0,
1680747312,GNSS,0,"$GNRMC,021452.000,A,2649.281420,N,07551.404993,E,0.00,157.42,060423,,,D,V*08"
1680747314,GNSS,0,"$GNRMC,021508.000,A,2649.280614,N,07551.406118,E,0.00,157.42,060423,,,D,V*0B"
1680747316,GNSS,0,
1680747318,GNSS,0,"$GNRMC,021509.000,A,2649.280573,N,075"
1680747320,GNSS,0,
1680747322,GNSS,0,
1680747324,GNSS,0,"$GNRMC,021510.000,A,2649.280900,N,07551.405981,E,0.00,157.42,060423,,,D,V*03"
1680747326,GNSS,0,
1680747328,GNSS,0,
1680747330,GNSS,0,"$GNRMC,021511.000,A,2649.281191,N,07551.405942,E,0.00,157.42,060423,,,D,V*0C"
1680747332,GNSS,0,
1680747334,GNSS,0,"$GNRMC,021527.000,A,2649.282152,N,07551.405594,E,0.00,157.42,060423,,,D,V*02"
1680747336,GNSS,0,
1680747338,GNSS,0,"$GNRMC,021528.000,A,2649.282152,N,07551.405594,E,0.00,157.42,060423,,,D,V*0D"
1680747340,GNSS,0,
1680747342,GNSS,0,
1680747344,GNSS,0,"$GNRMC,021529.000,A,2649.281414,N,07551.407394,E,0.00,157.42,060423,,,D,V*0C"
1680747346,GNSS,0,
1680747348,GNSS,0,"$GNRMC,021530.000,A,2649.281107,N,07551.407794,E,0.00,157.42"
1680747350,GNSS,0,
1680747352,GNSS,0,
1680747354,GNSS,0,
1680747356,GNSS,0,"$GNRMC,021547.000,A,2649.281032,N,07551.408941,E,0.00,157.42,060423,,,D,V*09"
1680747358,GNSS,0,
1680747360,GNSS,0,
1680747362,GNSS,0,"$GNRMC,021548.000,A,2649.281032,N,07551.408941,E,0.00,157.42,060423,,,D,V*06"
1680747364,GNSS,0,
1680747366,GNSS,0,"$GNRMC,021549.000,A,2649.281032,N,07551.408941,E,0.00,157.42,060423,,,D,V*07"
1680747368,GNSS,0,
1680747370,GNSS,0,
1680747372,GNSS,0,
1680747374,GNSS,0,"$GNRMC,021606.000,A,2649.278559,N,07551.410851,E,0.00,157.42,060423,,,D,V*08"
1680747376,GNSS,0,
1680747378,GNSS,0,"$GNRMC,021607.000,A,2649.278863,N,07551.410723,E,0.00,157.42,060423,,,D,V"
1680747380,GNSS,0,
1680747382,GNSS,0,
1680747384,GNSS,0,"$GNRMC,021608.000,A,2649.279202,N,07551.410573,E,0.00,157.42,060423,,,D,V*03"
1680747386,GNSS,0,
1680747388,GNSS,0,"$GNRMC,021609.000,A,2649.2792"
1680747390,GNSS,0,
1680747392,GNSS,0,"$GNRMC,021625.000,A,2649.276318,N,07551.410898,E,0.00,157.42,060423,,,D,V*01"
1680747394,GNSS,0,
1680747396,GNSS,0,"$GNRMC,021626.000,A,2649.276462,N,07551.410688,E,0.00,157.42,060423,,,D,V*07"
1680747398,GNSS,0,
1680747400,GNSS,0,
1680747402,GNSS,0,"$GNRMC,021627.000,A,2649.276643,N,07551.410505,E,0.00,157.42,060423,,,D,V*01"
1680747404,GNSS,0,
1680747406,GNSS,0,"$GNRMC,021628.000,A,2649.276244,N,07551.410980,E,0.00,119.07"
1680747408,GNSS,0,
1680747410,GNSS,0,
1680747412,GNSS,0,
1680747414,GNSS,0,"$GNRMC,021645.000,A,2649.277952,N,07551.412455,E,0.00,119.07,060423,,,D,V*06"
1680747416,GNSS,0,
1680747418,GNSS,0,"$GNRMC,021646.000,A,2649.277374,N,07551.41"
1680747420,GNSS,0,
1680747422,GNSS,0,
1680747424,GNSS,0,"$GNRMC,021647.000,A,2649.277264,N,07551.412530,E,0.00,119.07,060423,,,D,V*08"
1680747427,GNSS,0,
1680747429,GNSS,0,
1680747431,GNSS,0,"$GNRMC,021704.000,A,2649.279594,N,07551.407100,E,0.00,119.07,060423,,,D,V*0B"
1680747433,GNSS,0,
1680747435,GNSS,0,
1680747437,GNSS,0,"$GNRMC,021705.000,A,2649.279572,N,07551.407251,E,0.00,119.07,060423,,,D,V*05"
1680747439,GNSS,0,
1680747441,GNSS,0,"$GNRMC,021706.000,A,2649.279458,N,07551.407470,E,0.00,119.07,060423,,,D,V*0A"
1680747443,GNSS,0,
1680747445,GNSS,0,
1680747447,GNSS,0,"$GNRMC,021707.000,A,2649.279006,N,07551.407458,E,0.00,119.07,060423,,,D,V*0E"
1680747449,GNSS,0,
1680747451,GNSS,0,
1680747453,GNSS,0,"$GNRMC,021724.000,A,2649.278586,N,07551.405104,E,0.00,119.07,060423,,,D,V*0D"
1680747455,GNSS,0,
1680747457,GNSS,0,
1680747459,GNSS,0,"$GNRMC,021725.000,A,2649.278586,N,07551.405104,E,0.00,119.07,060423,,,D,V*0C"
1680747461,GNSS,0,
1680747463,GNSS,0,"$GNRMC,021726.000,A,2649.278086,N,07551.405632,E,0.00,119.07,060423,,,D,V*08"
1680747465,GNSS,0,
1680747467,GNSS,0,
1680747469,GNSS,0,"$GNRMC,021743.000,A,264"
1680747471,GNSS,0,
1680747473,GNSS,0,
1680747475,GNSS,0,"$GNRMC,021744.000,A,2649.273507,N,07551.406218,E,0.00,119.07,060423,,,D,V*04"
1680747477,GNSS,0,
1680747479,GNSS,0,
1680747481,GNSS,0,"$GNRMC,021745.000,A,2649.273461,N,07551.406424,E,0.00,119.07,060423,,,D,V*0D"
1680747483,GNSS,0,
1680747485,GNSS,0,"$GNRMC,021746.000,A,2649.273640,N,07551.406429,E,0.00,119.07,060423,,,D,V*02"
1680747487,GNSS,0,
1680747489,GNSS,0,"$GNRMC,021802.000,A,2649.277219,N,07551.407854,E,0.00,119.07,060423,,,D,V*06"
1680747491,GNSS,0,
1680747493,GNSS,0,"$GNRMC,021803.000,A,2649.277564,N,07551.407285,E,0.00,119.07,060423,,,D,V*0C"
1680747495,GNSS,0,
1680747497,GNSS,0,
1680747499,GNSS,0,"$GNRMC,021804.000,A,2649.277436,N,07551.407257,E,0.00,119.07,060423,,,D,V*02"
1680747501,GNSS,0,
1680747503,GNSS,0,"$GNRMC,021805.000,A,2649.277769,N,07551.407113,E,0.00,119.07,060423,,,D,V*09"
1680747505,GNSS,0,
1680747507,GNSS,0,
1680747509,GNSS,0,"$GNRMC,021822.000,A"
1680747511,GNSS,0,
1680747513,GNSS,0,
1680747515,GNSS,0,"$GNRMC,021823.000,A,2649.278026,N,07551.406079,E,0.00,119.07,060423,,,D,V*02"
1680747517,GNSS,0,
1680747519,GNSS,0,
1680747521,GNSS,0,"$GNRMC,021824.000,A,2649.278026,N,07551.406079,E,0.00,119.07,060423,,,D,V*05"
1680747523,GNSS,0,
1680747525,GNSS,0,"$GNRMC,021825.000,A,2649.278026,N,07551.406079,E,0.00,119.07,060423,,,D,V*04"
1680747527,GNSS,0,"$GNRMC,021841.000,A,2649.278762,N,07551.410413,E,0.00,119.07,060423,,,D,V*0E"
1680747529,GNSS,0,
1680747531,GNSS,0,"$GNRMC,0218"
1680747533,GNSS,0,
1680747535,GNSS,0,
1680747537,GNSS,0,"$GNRMC,021843.000,A,2649.278374,N,07551.411046,E,0.00,119.07,060423,,,D,V*0A"
1680747539,GNSS,0,
1680747541,GNSS,0,
1680747543,GNSS,0,"$GNRMC,021844.000,A,2649.278392,N,07551.411250,E,0.00,119.07,060423,,,D,V*00"
1680747545,GNSS,0,
1680747547,GNSS,0,
1680747549,GNSS,0,"$GNRMC,021901.000,A,2649.276402,N,07551.412880,E,0.00,119.07,060423,,,D,V*04"
1680747551,GNSS,0,
1680747553,GNSS,0,"$GNRMC,021902.000,A,2649."
1680747555,GNSS,0,
1680747557,GNSS,0,
1680747559,GNSS,0,"$GNRMC,021903.000,A,2649.276731,N,07551.412566,E,0.00,119.07,060423,,,D,V*00"
1680747561,GNSS,0,
1680747563,GNSS,0,
1680747565,GNSS,0,
1680747567,GNSS,0,"$GNRMC,021920.000,A,2649.276952,N,07551.411721,E,0.00,119.07,060423,,,D,V*08"
1680747569,GNSS,0,
1680747571,GNSS,0,"$GNRMC,021921.000,A,2649.276952,N,07551.411721,E,0.00,119.07,060423,,,D,V*09"
1680747573,GNSS,0,
1680747575,GNSS,0,
1680747577,GNSS,0,"$GNRMC,021922.000,A,2649.277454,N,07551.411487,E,0.00,119.07,060423,,,D,V*0F"
1680747579,GNSS,0,
1680747581,GNSS,0,"$GNRMC,021923.000,A,2649.276999,N,07551.411813,E,0.00,119.07,060423,,,D,V*02"
1680747583,GNSS,0,
1680747585,GNSS,0,
1680747587,GNSS,0,"$GNRMC,021940"
1680747589,GNSS,0,
1680747591,GNSS,0,
1680747593,GNSS,0,"$GNRMC,021941.000,A,2649.278716,N,07551.409317,E,0.00,119.07,060423,,,D,V*07"
1680747595,GNSS,0,
1680747597,GNSS,0,
1680747599,GNSS,0,"$GNRMC,021942.000,A,2649.278621,N,07551.409488,E,0.00,119.07,060423,,,D,V*00"
1680747601,GNSS,0,
1680747603,GNSS,0,"$GNRMC,021943.000,A,2649.278463,N,07551.409665,E,0.00,119.07,060423,,,D,V*04"
1680747605,GNSS,0,"$GNRMC,021959.000,A,2649.277713,N,07551.409785,E,0.00,119.07,060423,,,D,V*0B"
1680747607,GNSS,0,
1680747609,GNSS,0,
1680747611,GNSS,0,"$GNRMC,022000.000,A,2649.277776,N,07551.410031,E,0.00,119.07,060423,,,D,V*0E"
1680747613,GNSS,0,
1680747615,GNSS,0,"$GNRMC,022001.000,A,2649.277776,N,07551.410031,E,0.00,119.07,060423,,,D,V*0F"
1680747617,GNSS,0,
1680747619,GNSS,0,
1680747621,GNSS,0,"$GNRMC,022002.000,A,2649.277776,N,07551.410031,E,0.00,119.07,060423,,,D,V*0C"
1680747623,GNSS,0,
1680747625,GNSS,0,"$GNRMC,022018.000,A,2649.277399,N,07551.408998,E,0.00,119.07,060423,,,D,V*01"
1680747627,GNSS,0,
1680747629,GNSS,0,"$GNRMC,022019.000,A,2649.277763,N,07551.408770,E,0.00,119.07,060423,,,D,V*09"
1680747631,GNSS,0,
1680747633,GNSS,0,
1680747635,GNSS,0,"$GNRMC,022020.000,A,2649.277915,N,07551.408976,E,0.00,119.07,060423,,,D,V*04"
1680747637,GNSS,0,
1680747639,GNSS,0,"$GNRMC,022021.000,A,2649.278317,N,07551.408962,E,0.00,119.07,060423,,,D,V*07"
1680747641,GNSS,0,
1680747643,GNSS,0,
1680747645,GNSS,0,"$GNRMC,022038.000,A,2649.278206,N,07551.408624,E,0.00,119.07,060423,,,D,V*03"
1680747647,GNSS,0,
1680747649,GNSS,0,"$GNRMC,022039.000,A,2649.278393,N,07551.408287,E,0."
1680747651,GNSS,0,
1680747653,GNSS,0,
1680747655,GNSS,0,"$GNRMC,022040.000,A,2649.278403,N,07551.407896,E,0.00,119.07,060423,,,D,V*07"
1680747657,GNSS,0,
1680747659,GNSS,0,"$GNRMC,022041.000,A,2649.278385,N"
1680747661,GNSS,0,
1680747663,GNSS,0,
1680747665,GNSS,0,"$GNRMC,022058.000,A,2649.279077,N,07551"
1680747667,GNSS,0,
1680747669,GNSS,0,
1680747671,GNSS,0,"$GNRMC,022059.000,A,2649.279355,N,07551.406204,E,0.00,119.07,060423,,,D,V*0A"
1680747673,GNSS,0,
1680747675,GNSS,0,"$GNRMC,022100.000"
1680747677,GNSS,0,
1680747679,GNSS,0,
1680747681,GNSS,0,"$GNRMC,022101.000,A,2649.279360,N,07551.406332,E,0.00,119.07,060423,,,D,V*04"
1680747683,GNSS,0,
1680747685,GNSS,0,
1680747687,GNSS,0,"$GNRMC,022118.000,A,2649.280657,N,07551.409010,E,0.00,119.07,060423,,,D,V*07"
1680747689,GNSS,0,
1680747691,GNSS,0,"$GNRMC,022119.000,A,2649.281048"
1680747693,GNSS,0,
1680747695,GNSS,0,
1680747697,GNSS,0,"$GNRMC,022120.000,A,2649.280746,N,07551.409529,E,0.00,119.07,060423,,,D,V*02"
1680747699,GNSS,0,
1680747701,GNSS,0,"$GNRMC,022121"
1680747703,GNSS,0,"$GNRMC,022137.000,A,2649.282591,N,07551.409670,E,0.00,119.07,060423,,,D,V*01"
1680747705,GNSS,0,
1680747707,GNSS,0,"$GNRMC,022138.000,A,2649.282248,N,07551.409895,E,0."
1680747709,GNSS,0,
1680747711,GNSS,0,
1680747713,GNSS,0,"$GNRMC,022139.000,A,2649.282213,N,07551.409779,E,0.00,119.07,060423,,,D,V*0A"
1680747715,GNSS,0,
1680747717,GNSS,0,"$GNRMC,022140.000,A,2649."
1680747719,GNSS,0,
1680747721,GNSS,0,
1680747723,GNSS,0,"$GNRMC,0221"
1680747725,GNSS,0,
1680747727,GNSS,0,
1680747729,GNSS,0,"$GNRMC,022158.000,A,2649.283962,N,07551.405361,E,0.00,119.07,060423,,,D,V*00"
1680747731,GNSS,0,
1680747733,GNSS,0,
1680747735,GNSS,0,"$GNRMC,022159.000,A,2649.283962,N,07551.405361,E,0.00,119.07,060423,,,D,V*01"
1680747737,GNSS,0,
1680747739,GNSS,0,"$GNRMC,022200.000,A,2649.283962,N,07551.405361,E,0.00,119.07,060423,,,D,V*0E"
1680747741,GNSS,0,
1680747743,GNSS,0,"$GNRMC,022216.000,A,2649.286047,N,07551.406942,E,0.00,119.07,060423,,,D,V*0A"
1680747745,GNSS,0,
1680747747,GNSS,0,"$GNRMC,022217.000,A,2649.285760,N,07551.407181,E,0.00,119.07,060423,,,D,V*0C"
1680747749,GNSS,0,
1680747751,GNSS,0,
1680747753,GNSS,0,"$GNRMC,022218.000,A,2649.285460,N,07551.407217,E,0.00,119.07,060423,,,D,V*0C"
1680747755,GNSS,0,
1680747757,GNSS,0,"$GNRMC,022219.000,A,2649.284943,N,07551.407540,E,0.00,119.07,060423,,,D,V*05"
1680747759,GNSS,0,
1680747761,GNSS,0,
1680747763,GNSS,0,"$GNRMC,022236.000,A,2649.287758,N,07551.405558,E,0.00,119.07,060423,,,D,V"
1680747765,GNSS,0,
1680747767,GNSS,0,
1680747769,GNSS,0,"$GNRMC,022237.000,A,2649.287920,N,07551.405472,E,0.00,119.07,060423,,,D,V*0D"
1680747771,GNSS,0,
1680747773,GNSS,0,"$GNRMC,022238.000,A,2649.288046,N,07551.405069,"
1680747775,GNSS,0,
1680747777,GNSS,0,
1680747779,GNSS,0,"$GNRMC,022239.000,A,2649.287980,N,07551.404913,E,0.00,119.07,060423,,,D,V*02"
1680747781,GNSS,0,
1680747783,GNSS,0,
1680747785,GNSS,0,"$GNRMC,022256.000,A,2649.286414,N,07551.405417,E,0.00,119.07,060423,,,D,V*02"
1680747787,GNSS,0,
1680747789,GNSS,0,
1680747791,GNSS,0,"$GNRMC,022257.000,A,2649.286031,N,07551.405426,E,0.00,119.07,060423,,,D,V*02"
1680747793,GNSS,0,
1680747795,GNSS,0,"$GNRMC,022258.000,A,2649.286188,N,07551.404934,E,0.00,119.07,060423,,,D,V*01"
1680747797,GNSS,0,
1680747799,GNSS,0,
1680747801,GNSS,0,"$GNRMC,022315.000,A,2649.286885,N,07551.404264,E,0.00,119.07,060423,,,D,V*03"
1680747803,GNSS,0,
1680747805,GNSS,0,
1680747807,GNSS,0,"$GNRMC,022316.000,A,2649.286522,N,07551.404281,E,0.00,119.07,060423,,,D,V*0B"
1680747809,GNSS,0,
1680747811,GNSS,0,"$GNRMC,022317.000,A,2649.286365,N,07551.404206,E,0.00"
1680747813,GNSS,0,
1680747815,GNSS,0,
1680747817,GNSS,0,"$GNRMC,022318.000,A,2649.286474,N,07551.404274,E,0.00,119.07,060423,,,D,V*0D"
1680747819,GNSS,0,
1680747821,GNSS,0,"$GNRMC,022334.000,A,2649.285391,N,07551.404072,E,0.00,119.07,060423,,,D,V*08"
1680747823,GNSS,0,
1680747825,GNSS,0,"$GNRMC,022335.000,A,2649.285102,N,07551.404452,E,0.00,119.07,060423,,,D,V*07"
1680747827,GNSS,0,
1680747829,GNSS,0,
1680747831,GNSS,0,"$GNRMC,022336.000,A,2649.283754,N,07551.404692,E,0.00,119.07,060423,,,D,V*09"
1680747833,GNSS,0,
1680747835,GNSS,0,"$GNRMC,022337.000,A,2649.283566,N,07551.405069,E,0.00,119."
1680747837,GNSS,0,
1680747839,GNSS,0,
1680747841,GNSS,0,
1680747843,GNSS,0,"$GNRMC,022354.000,A,2649.283956,N,07551.405488,E,0.00,119.07,060423,,,D,V*09"
1680747845,GNSS,0,
1680747847,GNSS,0,
1680747849,GNSS,0,"$GNRMC,022355.000,A,2649.283956,N,07551.405488,E,0.00,119.07,060423,,,D,V*08"
1680747851,GNSS,0,
1680747853,GNSS,0,"$GNRMC,022356.000,A,2649.283956,N,07551.405488,E,0.00,119.07,060423,,,D,V*0B"
1680747855,GNSS,0,
1680747857,GNSS,0,
1680747859,GNSS,0,
1680747861,GNSS,0,"$GNRMC,022413.000,A,2649.282647,N,07551.406355,E,0.00,119.07,060423,,,D,V*07"
1680747863,GNSS,0,
1680747865,GNSS,0,"$GNRMC,022414.000,A,2649.283368,N,07551.406656,E,0.00,119"
1680747867,GNSS,0,
1680747869,GNSS,0,
1680747871,GNSS,0,"$GNRMC,022415.000,A,2649.283368,N,07551.406656,E,0.00,119.07,060423,,,D,V*0E"
1680747873,GNSS,0,
1680747875,GNSS,0,"$GNRMC,02"
1680747877,GNSS,0,
1680747879,GNSS,0,"$GNRMC,022432.000,A,2649.288016,N,07551.406590,E,0.00,119.07,060423,,,D,V*03"
1680747881,GNSS,0,
1680747883,GNSS,0,"$GNRMC,022433.000,A,2649.287097,N,07551.406078,E,0.00,119.07,060423,,,D,V*07"
1680747886,GNSS,0,
1680747888,GNSS,0,
1680747890,GNSS,0,"$GNRMC,022434.000,A,2649.286916,N,07551.406026,E,0.00,119.07,060423,,,D,V*0A"
1680747892,GNSS,0,
1680747894,GNSS,0,"$GNRMC,022435.000,A,2649.287053,N,07551.405663,E,0.00,119.07,06042"
1680747896,GNSS,0,
1680747898,GNSS,0,"$GNRMC,022451.000,A,2649.287761,N,07551.401765,E,0.00,119.07,060423,,,D,V*01"
1680747900,GNSS,0,
1680747902,GNSS,0,"$GNRMC,022452.000,A,2649.288308,N,07551.401895,E,0.00,119.07,060423,,,D,V*06"
1680747904,GNSS,0,
1680747906,GNSS,0,
1680747908,GNSS,0,"$GNRMC,022453.000,A,2649.288415,N,07551.402066,E,0.00,119.07,060423,,,D,V*0B"
1680747910,GNSS,0,
1680747912,GNSS,0,"$GNRMC,022454.000,A,2649.288180,N,07551.402218,E,0.00,119.07,06042"
1680747914,GNSS,0,
1680747916,GNSS,0,
1680747918,GNSS,0,
1680747920,GNSS,0,"$GNRMC,022511.000,A,2649.283502,N,07551.400676,E,0.00,119.07,060423,,,D,V*05"
1680747922,GNSS,0,
1680747924,GNSS,0,"$GNRMC,022512.000,A,2649.283639,N,07551."
1680747926,GNSS,0,
1680747928,GNSS,0,
1680747930,GNSS,0,"$GNRMC,022513.000,A,2649.283816,N,07551.399021,E,0.00,119.07,060423,,,D,V*0C"
1680747932,GNSS,0,
1680747934,GNSS,0,
1680747936,GNSS,0,"$GNRMC,022530."
1680747938,GNSS,0,
1680747940,GNSS,0,
1680747942,GNSS,0,"$GNRMC,022531.000,A,2649.283786,N,07551.397626,E,0.00,119.07,060423,,,D,V*05"
1680747944,GNSS,0,
1680747946,GNSS,0,
1680747948,GNSS,0,"$GNRMC,022532.000,A,2649.283786,N,07551.397626,E,0.00,119.07,060423,,,D,V*06"
1680747950,GNSS,0,
1680747952,GNSS,0,"$GNRMC,022533.000,A,2649.284384,N,07551.398344,E,0.00,119.07,060423,,,D,V*08"
1680747954,GNSS,0,
1680747956,GNSS,0,"$GNRMC,022549.000,A,2649.287157,N,07551.399184,E,0.00,119.07,060423,,,D,V*05"
1680747958,GNSS,0,
1680747960,GNSS,0,"$GNRMC,022550.000,A,2649.287157,N,07551.399184,E,0.00,119.07,060423,,,D,V*0D"
1680747962,GNSS,0,
1680747964,GNSS,0,
1680747966,GNSS,0,"$GNRMC,022551.000,A,2649.287157,N,07551.399184,E,0.00,119.07,060423,,,D,V*0C"
1680747968,GNSS,0,
1680747970,GNSS,0,"$GNRMC,022552.000,A,2649.287157,N"
1680747972,GNSS,0,
1680747974,GNSS,0,"$GNRMC,022608.000,A,2649.287502,N,07551.398796,E,0.00,119.07,060423,,,D,V*03"
1680747976,GNSS,0,
1680747978,GNSS,0,
1680747980,GNSS,0,"$GNRMC,022609.000,A,2649.287343,N,07551.399042,E,0.00,119.07,060423,,,D,V*0E"
1680747982,GNSS,0,
1680747984,GNSS,0,"$GNRMC,022610.000,A,2649.287222,N,07551.398842,E,0.00,119.07,06"
1680747986,GNSS,0,
1680747988,GNSS,0,
1680747990,GNSS,0,"$GNRMC,022611.000,A,2649.287222,N,07551.398842,E,0.00,119.07,060423,,,D,V*08"
1680747992,GNSS,0,
1680747994,GNSS,0,"$GNRMC,022627.000,A,2649.286862,N,07551.400104,E,0.00,119.07,060423,,,D,V*0F"
1680747996,GNSS,0,
1680747998,GNSS,0,"$GNRMC,022628.000,A,2649.287007,N,07551.400399,E,0.00,119.07,060423,,,D,V*0C"
1680748000,GNSS,0,
1680748002,GNSS,0,
1680748004,GNSS,0,"$GNRMC,022629.000,A,2649.286645,N,07551.400931,E,0.00,119.07,060423,,,D,V*04"
1680748006,GNSS,0,
1680748008,GNSS,0,"$GNRMC,022630.000,A,2649.286394,N,07551.40132"
1680748010,GNSS,0,
1680748012,GNSS,0,"$GNRMC,022646.000,A,2649.286746,N,07551.403803,E,0.00,119.07,060423,,,D,V*0C"
1680748014,GNSS,0,
1680748016,GNSS,0,
1680748018,GNSS,0,
1680748020,GNSS,0,
1680748022,GNSS,0,"$GNRMC,022648.000,A,2649.287007,N,07551.404260,E,0.00,119.07,060423,,,D,V*09"
1680748024,GNSS,0,
1680748026,GNSS,0,
1680748028,GNSS,0,"$GNRMC,022649.000,A,2649.287007,N,07551.404260,E,0.00,119.07,060423,,,D,V*08"
1680748030,GNSS,0,
1680748032,GNSS,0,"$GNRMC,022705.000,A,2649.285862,N,07551.403500,E,0.00,119.07,060423,,,D,V*0E"
1680748034,GNSS,0,
1680748036,GNSS,0,"$GNRMC,022706.000,A,2649.285646,N,07551.403920,E,0.00,119.07,060423,,,D,V*0B"
1680748038,GNSS,0,
1680748040,GNSS,0,
1680748042,GNSS,0,"$GNRMC,022707.000,A,2649.286001,N,07551.403715,E,0.00,119.07,060423,,,D,V*04"
1680748044,GNSS,0,
1680748046,GNSS,0,"$GNRMC,022708.000,A,2649.286001,N"
1680748048,GNSS,0,
1680748050,GNSS,0,"$GNRMC,022724.000,A,2649.286001,N,07551.403715,E,0.00,119.07,060423,,,D,V*05"
1680748052,GNSS,0,
1680748054,GNSS,0,
1680748056,GNSS,0,"$GNRMC,022725.000,A,2649.286001,N,07551.403715,E,0.00,119.07,060423,,,D,V*04"
1680748058,GNSS,0,
1680748060,GNSS,0,"$GNRMC,022726.000,A,2649.286001,N,07551.403715,E,0.00,119.07,06"
1680748062,GNSS,0,
1680748064,GNSS,0,
1680748066,GNSS,0,"$GNRMC,022727.000,A,2649.286001,N,07551.403715,E,0.00,119.07,060423,,,D,V*06"
1680748068,GNSS,0,
1680748070,GNSS,0,"$GNRMC,022743.000,A,2649.287145,N,07551.407252,E,0.00,119.07,060423,,,D,V*06"
1680748072,GNSS,0,
1680748074,GNSS,0,"$GNRMC,022744.000,A,2649.287051,N,07551.407202,E,0.00,119.07,060423,,,D,V*00"
1680748076,GNSS,0,
1680748078,GNSS,0,
1680748080,GNSS,0,"$GNRMC,022745.000,A,2649.287039,N,07551.407011,E,0.00,119.07,060423,,,D,V*0F"
1680748082,GNSS,0,
1680748084,GNSS,0,"$GNRMC,022746.000,A,2649.287141"
1680748086,GNSS,0,
1680748088,GNSS,0,"$GNRMC,022802.000,A,2649.284566,N,07551.406643,E,0.00,119.07,060423,,,D,V*0F"
1680748090,GNSS,0,
1680748092,GNSS,0,
1680748094,GNSS,0,"$GNRMC,022803.000,A,2649.284119,N,07551.405930,E,0.00,119.07,060423,,,D,V*0A"
1680748096,GNSS,0,
1680748098,GNSS,0,"$GNRMC,022804.000,A,2649.283851,N,07551.406139,E,0.00,119.07,"
1680748100,GNSS,0,
1680748102,GNSS,0,
1680748104,GNSS,0,"$GNRMC,022805.000,A,2649.283487,N,07551.406559,E,0.00,119.07,060423,,,D,V*09"
1680748106,GNSS,0,
1680748108,GNSS,0,"$GNRMC,022821.000,A,2649.284947,N,07551.406614,E,0.00,119.07,060423,,,D,V*03"
1680748111,GNSS,0,
1680748113,GNSS,0,"$GNRMC,022822.000,A,2649.284947,N,07551.406614,E,0.00,119.07,060423,,,D,V*00"
1680748115,GNSS,0,
1680748117,GNSS,0,
1680748119,GNSS,0,"$GNRMC,022823.000,A,2649.284947,N,07551.406614,E,0.00,119.07,060423,,,D,V*01"
1680748121,GNSS,0,
1680748123,GNSS,0,"$GNRMC,022824.000,A,2649.2849"
1680748125,GNSS,0,
1680748127,GNSS,0,
1680748129,GNSS,0,"$GNRMC,022840.000,A,2649.285706,N,07551.402240,E,0.00,119.07,060423,,,D,V*0F"
1680748131,GNSS,0,
1680748133,GNSS,0,"$GNRMC,022841.000,A,2649.28520"
1680748135,GNSS,0,
1680748137,GNSS,0,
1680748139,GNSS,0,"$GNRMC,022842.000,A,2649.285101,N,07551.401593,E,0.00,119.07,060423,,,D,V*06"
1680748141,GNSS,0,
1680748143,GNSS,0,
1680748145,GNSS,0,"$GNRMC,022858.000,A,2649.285137,N,07551.401755,E,0.00,119.07,060423,,,D,V*00"
1680748147,GNSS,0,
1680748149,GNSS,0,"$GNRMC,022859.000,A,2649.285137,N,07551.401755,E,0.00,119.07,060423,,,D,V*01"
1680748151,GNSS,0,
1680748153,GNSS,0,
1680748155,GNSS,0,"$GNRMC,022900.000,A,2649.285137,N,07551.401755,E,0.00,119.07,060423,,,D,V*0C"
1680748157,GNSS,0,
1680748159,GNSS,0,
1680748161,GNSS,0,"$GNRMC,022901.000,A,2649.286052,N,07551.399603,E,0.00,119.07,060423,,,D,V*08"
1680748163,GNSS,0,
1680748165,GNSS,0,"$GNRMC,022917.000,A,2649.285038,N,07551.397697,E,0.00,119.07,060423,,,D,V*03"
1680748167,GNSS,0,
1680748169,GNSS,0,
1680748171,GNSS,0,"$GNRMC,022918.000,A,2649.285038,N,07551.397697,E,0.00,119.07,060423,,,D,V*0C"
1680748173,GNSS,0,
1680748175,GNSS,0,"$GNRMC,022919.000,A,2649.285038,N,07551.397697,E,0.00,11"
1680748177,GNSS,0,
1680748179,GNSS,0,
1680748181,GNSS,0,"$GNRMC,022935.000,A,2649.285211,N,07551.400422,E,0.00,119.07,060423,,,D,V*0F"
1680748183,GNSS,0,
1680748185,GNSS,0,"$GNRMC,022936.000,A,2649.285211,N,07551.400422,E,0.00,119"
1680748187,GNSS,0,
1680748189,GNSS,0,
1680748191,GNSS,0,"$GNRMC,022937.000,A,2649.285260,N,07551.399245,E,0.00,119.07,060423,,,D,V*0B"
1680748193,GNSS,0,
1680748195,GNSS,0,
1680748197,GNSS,0,"$GNRMC,022938.000,A,2649.285169,N,07551.399071,E,0.00,119.07,060423,,,D,V*0B"
1680748199,GNSS,0,
1680748201,GNSS,0,"$GNRMC,022954.000,A,2649.286896,N,07551.394893,E,0.00,119.07,060423,,,D,V*02"
1680748203,GNSS,0,
1680748205,GNSS,0,
1680748207,GNSS,0,"$GNRMC,022955.000,A,2649.286835,N,07551.394979,E,0.00,119.07,060423,,,D,V*0F"
1680748209,GNSS,0,
1680748211,GNSS,0,"$GNRMC,022956.000,A,2649.286835,N,07551.394979,E,0.00,119.07,060423,,"
1680748213,GNSS,0,
1680748215,GNSS,0,
1680748217,GNSS,0,"$GNRMC,022957.000,A,2649.286835,N,07551.394979,E,0.00,119.07,060423,,,D,V*0D"
1680748219,GNSS,0,
1680748221,GNSS,0,"$GNRMC,023013.000,A,2649.286835,N,07551.394979,E,0.00,119.07,060423,,,D,V*05"
1680748223,GNSS,0,
1680748225,GNSS,0,
1680748227,GNSS,0,"$GNRMC,023014.000,A,2649.286835,N,07551.394979,E,0.00,119.07,060423,,,D,V*02"
1680748229,GNSS,0,
1680748231,GNSS,0,"$GNRMC,023015.000,A,2649.286835,"
1680748233,GNSS,0,
1680748235,GNSS,0,
1680748237,GNSS,0,
1680748239,GNSS,0,
1680748241,GNSS,0,"$GNRMC,023032.000,A,2649.286670,N,07551.402054,E,0.00,119.07,060423,,,D,V*07"
1680748243,GNSS,0,
1680748245,GNSS,0,
1680748247,GNSS,0,"$GNRMC,023033.000,A,2649.286670,N,07551.402054,E,0.00,119.07,060423,,,D,V*06"
1680748249,GNSS,0,
1680748251,GNSS,0,"$GNRMC,023034.0"
1680748253,GNSS,0,
1680748255,GNSS,0,
1680748257,GNSS,0,"$GNRMC,023050.000,A,2649.286212,N,07551.405073,E,0.00,119.07,060423,,,D,V*01"
1680748259,GNSS,0,
1680748261,GNSS,0,
1680748263,GNSS,0,
1680748265,GNSS,0,
1680748267,GNSS,0,"$GNRMC,023052.000,A,2649.286925,N,07551.405045,E,0.00,119.07,060423,,,D,V*09"
1680748269,GNSS,0,
1680748271,GNSS,0,
1680748273,GNSS,0,"$GNRMC,023053.000,A,2649.287226,N,07551.404502,E,0.00,119.07,060423,,,D,V*06"
1680748275,GNSS,0,
1680748277,GNSS,0,"$GNRMC,023109.000,A,2649.285600,N,07551.405989,E,0.00,119.07,060423,,,D,V*04"
1680748279,GNSS,0,
1680748281,GNSS,0,"$GNRMC,023110.000,A,2649.285478,N,07551.405846,E,0.00,119.07,"
1680748283,GNSS,0,
1680748285,GNSS,0,
1680748287,GNSS,0,"$GNRMC,023111.000,A,2649.285478,N,07551.405846,E,0.00,119.07,060423,,,D,V*02"
1680748289,GNSS,0,
1680748291,GNSS,0,
1680748293,GNSS,0,
1680748295,GNSS,0,"$GNRMC,023128.000,A,2649.288326,N,07551.403"
1680748297,GNSS,0,
1680748299,GNSS,0,
1680748301,GNSS,0,"$GNRMC,023129.000,A,2649.288368,N,07551.403358,E,0.00,119.07,060423,,,D,V*00"
1680748303,GNSS,0,
1680748305,GNSS,0,
1680748307,GNSS,0,"$GNRMC,023130.000,A,2649.288446,N,07551.403395,E,0.00,119.07,060423,,,D,V*02"
1680748309,GNSS,0,
1680748311,GNSS,0,"$GNRMC,023131.000,A,2649.288446,N,07551.403395,E,0.00,119.07,0604"
1680748313,GNSS,0,
1680748315,GNSS,0,"$GNRMC,023147.000,A,2649.287072,N,07551.402389,E,0.00,119.07,060423,,,D,V*02"
1680748317,GNSS,0,
1680748319,GNSS,0,
1680748321,GNSS,0,"$GNRMC,023148.000,A,2649.287072,N,07551.402389,E,0.00,119.07,060423,,,D,V*0D"
1680748323,GNSS,0,
1680748325,GNSS,0,"$GNRMC,023149.000,A,2649.285934,N,07551"
1680748327,GNSS,0,
1680748329,GNSS,0,
1680748331,GNSS,0,
1680748333,GNSS,0,"$GNRMC,02"
1680748335,GNSS,0,
1680748337,GNSS,0,
1680748339,GNSS,0,"$GNRMC,023207.000,A,2649.285481,N,07551.404950,E,0.00,119.07,060423,,,D,V*07"
1680748341,GNSS,0,
1680748343,GNSS,0,
1680748345,GNSS,0,"$GNRMC,023208.000,A,2649.284971,N,07551.405598,E,0.00,119.07,060423,,,D,V*02"
1680748348,GNSS,0,
1680748350,GNSS,0,
1680748352,GNSS,0,
1680748354,GNSS,0,"$GNRMC,023225.000,A,2649.286822,N,07551.404591,E,0.00,119.07,060423,,,D,V*00"
1680748356,GNSS,0,
1680748358,GNSS,0,"$GNRMC,023226.000,A,264"
1680748360,GNSS,0,
1680748362,GNSS,0,
1680748364,GNSS,0,"$GNRMC,023227.000,A,2649.286897,N,07551.404685,E,0.00,119.07,060423,,,D,V*0A"
1680748366,GNSS,0,
1680748368,GNSS,0,
1680748370,GNSS,0,
1680748372,GNSS,0,"$GNRMC,023244.000,A,2649.285524,N,07551.405232,E,0.00,119.07,060423,,,D,V*00"
1680748374,GNSS,0,
1680748376,GNSS,0,
1680748378,GNSS,0,"$GNRMC,023245.000,A,2649.285081,N,07551.404487,E,0.00,119.07,060423,,,D,V*02"
1680748380,GNSS,0,
1680748382,GNSS,0,"$GNRMC,023246.000,A,2649.284832,N,07551.404232,E,0.00,119.07,060423,,"
1680748384,GNSS,0,
1680748386,GNSS,0,
1680748388,GNSS,0,
1680748390,GNSS,0,"$GNRMC,023303.000,A,2649.290723,N,07551.399740,E,0.00,119.07,060423,,,D,V*01"
1680748392,GNSS,0,
1680748394,GNSS,0,
1680748396,GNSS,0,"$GNRMC,023304.000,A,2649.290992,N,07551.399193,E,0.00,119.07,060423,,,D,V*0A"
1680748398,GNSS,0,
1680748400,GNSS,0,"$GNRMC,023305.000,A,2649.290367,N,07551.399532,E,0.00,1"
1680748402,GNSS,0,
1680748404,GNSS,0,
1680748406,GNSS,0,"$GNRMC,023306.000,A,2649.289707,N,07551.399973,E,0.00,119.07,060423,,,D,V*04"
1680748408,GNSS,0,"$GNRMC,023322.000,A,2649.283934,N,07551.411"
1680748410,GNSS,0,
1680748412,GNSS,0,
1680748414,GNSS,0,"$GNRMC,023323.000,A,2649.284024,N,07551.411503,E,3.34,120.97,060423,,,D,V*03"
1680748416,GNSS,0,
1680748418,GNSS,0,
1680748420,GNSS,0,"$GNRMC,023324.000,A,2649.284409,N,07551.411064,E,0.00,126.03,060423,,,D,V*04"
1680748422,GNSS,0,
1680748424,GNSS,0,"$GNRMC,023325.000,A,2649.284422,N,07551.411709,E,0.00,80.40,060423,,,D,V*3A"
1680748426,GNSS,0,
1680748428,GNSS,0,"$GNRMC,023341.000,A,2649.288819,N,07551.407328,E,0.00,334.44,060423,,,D,V*08"
1680748430,GNSS,0,
1680748432,GNSS,0,"$GNRMC,023342.000,A,2649.289691,N,07551.406101,E,0.00,334.44,060423,,,D,V*0C"
1680748434,GNSS,0,
1680748436,GNSS,0,
1680748438,GNSS,0,"$GNRMC,023343.000,A,2649.290195,N,07551.405382,E,0.00,301.27,060423,,,D,V*0F"
1680748440,GNSS,0,
1680748442,GNSS,0,"$GNRMC,023344.000,A,2649.291175,N,07551.405078,E,3.89,330.84,06"
1680748444,GNSS,0,
1680748446,GNSS,0,"$GNRMC,023400.000,A,2649.297980,N,07551.406092,E,0.00,316.89,060423,,,D,V*07"
1680748448,GNSS,0,
1680748450,GNSS,0,"$GNRMC,023401.000,A,2649.297906,N,07551.407532,E,0.00,316.89,060423,,,D,V*06"
1680748452,GNSS,0,
1680748454,GNSS,0,
1680748456,GNSS,0,"$GNRMC,023402.000,A,2649.297915,N,07551.408199,E,0.00,316.89,060423,,,D,V*0D"
1680748458,GNSS,0,
1680748460,GNSS,0,"$GNRMC,023403.000,A,2649.297297,N,07551"
1680748462,GNSS,0,
1680748464,GNSS,0,
1680748466,GNSS,0,"$GNRMC,023419.000,A,2649.297228,N,07551.408704,E,0.00,316.89,060423,,,D,V*00"
1680748468,GNSS,0,
1680748470,GNSS,0,"$GNRMC,023420.000,A,2649.297190,N,07551.408846,E,0.00,316.89,060423,,,D,V*03"
1680748472,GNSS,0,
1680748474,GNSS,0,
1680748476,GNSS,0,"$GNRMC,023421.000,A,2649.297190,N,07551.408846,E,0.00,316.89,060423,,,D,V*02"
1680748478,GNSS,0,
1680748480,GNSS,0,"$GNRMC,023422.000,A,2649.297768,N,07551.408846,E,0."
1680748482,GNSS,0,
1680748484,GNSS,0,"$GNRMC,023438.000,A,2649.296571,N,07551.404273,E,0.00,316.89,060423,,,D,V*00"
1680748486,GNSS,0,
1680748488,GNSS,0,"$GNRMC,023439.000,A,2649.296542,N,07551.404472,E,0.00,316.89,060423,,,D,V*06"
1680748490,GNSS,0,
1680748492,GNSS,0,
1680748494,GNSS,0,"$GNRMC,023440.000,A,2649.296972,N,07551.404138,E,0.00,316.89,060423,,,D,V*0C"
1680748496,GNSS,0,
1680748498,GNSS,0,"$GNRMC,023441.000,A,2649.296699,N,07551.404"
1680748500,GNSS,0,
1680748502,GNSS,0,
1680748504,GNSS,0,
1680748506,GNSS,0,"$GNRMC,023458.000,A,2649.293320,N,07551.404440,E,0.00,316.89,060423,,,D,V*07"
1680748508,GNSS,0,
1680748510,GNSS,0,"$GNRMC,023459.000,A,2"
1680748512,GNSS,0,
1680748514,GNSS,0,
1680748516,GNSS,0,"$GNRMC,023500.000,A,2649.293350,N,07551.403443,E,0.00,316.89,060423,,,D,V*08"
1680748518,GNSS,0,
1680748520,GNSS,0,
1680748522,GNSS,0,
1680748524,GNSS,0,"$GNRMC,023517.000,A,2649.292864,N,07551.403885,E,0.00,316.89,060423,,,D,V*05"
1680748526,GNSS,0,
1680748528,GNSS,0,"$GNRMC,023518.000,A,2649.292692,N,07551.404020,E,0.00,316.89,06"
1680748530,GNSS,0,
1680748532,GNSS,0,
1680748534,GNSS,0,"$GNRMC,023519.000,A,2649.293080,N,07551.403220,E,0.00,316.89,060423,,,D,V*0D"
1680748536,GNSS,0,
1680748538,GNSS,0,"$GNRMC,023520.000"
1680748540,GNSS,0,
1680748542,GNSS,0,"$GNRMC,023536.000,A,2649.292621,N,07551.402887,E,0.00,316.89,060423,,,D,V*0A"
1680748544,GNSS,0,
1680748546,GNSS,0,"$GNRMC,023537.000,A,2649.292738,N,07551.402841,E,0.00,316.89,06"
1680748548,GNSS,0,
1680748550,GNSS,0,
1680748552,GNSS,0,"$GNRMC,023538.000,A,2649.293039,N,07551.402808,E,0.00,316.89,060423,,,D,V*0D"
1680748554,GNSS,0,
1680748556,GNSS,0,"$GNRMC,02"
1680748558,GNSS,0,
1680748560,GNSS,0,
1680748562,GNSS,0,"$GNRMC,023555.000,A,2649.291403,N,07551.402946,E,0.00,316.89,060423,,,D,V*02"
1680748564,GNSS,0,
1680748566,GNSS,0,"$GNRMC,023556.000,A,2649.291602,N,07551.403180,E,0.00,316.89,060423,,,D,V*01"
1680748568,GNSS,0,
1680748570,GNSS,0,
1680748572,GNSS,0,"$GNRMC,023557.000,A,2649.291671,N,07551.403118,E,0.00,316.89,060423,,,D,V*05"
1680748574,GNSS,0,
1680748576,GNSS,0,"$GNRMC,023558.000,A,2649.291935,N,07551.403018,E,0."
1680748578,GNSS,0,
1680748580,GNSS,0,"$GNRMC,023614.000,A,2649.283845,N,07551.408640,E,1.76,113.60,060423,,,D,V*0A"
1680748582,GNSS,0,
1680748584,GNSS,0,"$GNRMC,023615.000,A,2649.283760,N,07551.408386,E,0.00,162"
1680748586,GNSS,0,
1680748588,GNSS,0,
1680748590,GNSS,0,"$GNRMC,023616.000,A,2649.283971,N,07551.407936,E,0.00,290.60,060423,,,D,V*07"
1680748592,GNSS,0,
1680748594,GNSS,0,
1680748596,GNSS,0,
1680748598,GNSS,0,
1680748600,GNSS,0,"$GNRMC,023633.000,A,2649.289951,N,07551.400906,E,0.00,290.60,060423,,,D,V*0C"
1680748602,GNSS,0,
1680748604,GNSS,0,"$GNRMC,023634.000,A,2649.290134,N,07551.400593,E,0.00,290.60,060423,,,D,V*08"
1680748606,GNSS,0,
1680748608,GNSS,0,
1680748610,GNSS,0,"$GNRMC,023635.000,A,2649.290434,N,07551.400246,E,0.00,290.60,060423,,,D,V*03"
1680748612,GNSS,0,
1680748614,GNSS,0,"$GNRMC,023636.000,A,2649.290601,N,07551"
1680748616,GNSS,0,
1680748618,GNSS,0,"$GNRMC,023652.000,A,2649.290912,N,07551.401439,E,0.00,290.60,060423,,,D,V*04"
1680748620,GNSS,0,
1680748622,GNSS,0,"$GNRMC,"
1680748624,GNSS,0,
1680748626,GNSS,0,
1680748628,GNSS,0,"$GNRMC,023654.000,A,2649.290551,N,07551.402118,E,0.00,290.60,060423,,,D,V*0C"
1680748630,GNSS,0,
1680748632,GNSS,0,
1680748634,GNSS,0,"$GNRMC,023655.000,A,2649.290543,N,07551.402628,E,0.00,290.60,060423,,,D,V*0A"
1680748636,GNSS,0,
1680748638,GNSS,0,"$GNRMC,023711.000,A,2649.291264,N,07551.402602,E,0.00,290.60,060423,,,D,V*00"
1680748640,GNSS,0,
1680748642,GNSS,0,"$GNRMC,023712.000,A,2649.291264,N,07551.402602,E,0.00,290.60,060423,,,D,V*03"
1680748644,GNSS,0,
1680748646,GNSS,0,
1680748648,GNSS,0,"$GNRMC,023713.000,A,2649.291264,N,07551.402602,E,0.00,290.60,060423,,,D,V*02"
1680748650,GNSS,0,
1680748652,GNSS,0,"$GNRMC,023714.000,A,2649.290427,N,07551.403366,E,0."
1680748654,GNSS,0,
1680748656,GNSS,0,"$GNRMC,023730.000,A,2649.290213,N,07551.403695,E,0.00,290.60,060423,,,D,V*0D"
1680748658,GNSS,0,
1680748660,GNSS,0,"$GNRMC,023731.000,A,2649.290213,N,07551.403695,E,0.00,290.6"
1680748662,GNSS,0,
1680748664,GNSS,0,
1680748666,GNSS,0,"$GNRMC,023732.000,A,2649.290213,N,07551.403695,E,0.00,290.60,060423,,,D,V*0F"
1680748668,GNSS,0,
1680748670,GNSS,0,
1680748672,GNSS,0,
1680748674,GNSS,0,
1680748676,GNSS,0,"$GNRMC,023749.000,A,2649.291302,N,07551.398388,E,0.00,290.60,060423,,,D,V*0F"
1680748678,GNSS,0,
1680748680,GNSS,0,"$GNRMC,023750.000,A,2649.291302,N,07551.398388,E,0.00,290.60,060423,,,D,V*07"
1680748682,GNSS,0,
1680748684,GNSS,0,
1680748686,GNSS,0,"$GNRMC,023751.000,A,2649.291302,N,07551.398388,E,0.00,290.60,060423,,,D,V*06"
1680748688,GNSS,0,
1680748690,GNSS,0,"$GNRMC,023752.000,A,2649.291302,N,07551.398"
1680748692,GNSS,0,
1680748694,GNSS,0,"$GNRMC,023808.000,A,2649.291302,N,07551.398388,E,0.00,290.60,060423,,,D,V*05"
1680748696,GNSS,0,
1680748698,GNSS,0,"$GNRMC,023809.000,A,2649.291302,N,07551.398388,E,0.00,290.60,060423,,,D,V*04"
1680748700,GNSS,0,
1680748702,GNSS,0,
1680748704,GNSS,0,"$GNRMC,023810.000,A,2649.291302,N,07551.398388,E,0.00,290.60,060423,,,D,V*0C"
1680748706,GNSS,0,
1680748708,GNSS,0,"$GNRMC,023811.000,A,2649.29"
1680748710,GNSS,0,
1680748712,GNSS,0,
1680748714,GNSS,0,"$GNRMC,023827.000,A,2649.291302,N,07551.398388,E,0.00,290.60,060423,,,D,V*08"
1680748716,GNSS,0,
1680748718,GNSS,0,"$GNRMC,023828.000,A,2649.291302,N,07551.398388,E,0.00,290.60,060423,,,D,V*07"
1680748720,GNSS,0,
1680748722,GNSS,0,
1680748724,GNSS,0,"$GNRMC,023829.000,A,2649.291302,N,07551.398388,E,0.00,290.60,060423,,,D,V*06"
1680748726,GNSS,0,
1680748728,GNSS,0,"$GNRMC,023830.000,A,2649.291302,N,07551.398388,E,0."
1680748730,GNSS,0,
1680748732,GNSS,0,
1680748734,GNSS,0,
1680748736,GNSS,0,"$GNRMC,023847.000,A,2649.290452,N,07551.400792,E,0.00,290.60,060423,,,D,V*04"
1680748738,GNSS,0,
1680748740,GNSS,0,
1680748742,GNSS,0,"$GNRMC,023848.000,A,2649.290452,N,07551.400792,E,0.00,290.60,060423,,,D,V*0B"
1680748744,GNSS,0,
1680748746,GNSS,0,"$GNRMC,023849.000,A,2649.290452,N,07551.400792,E,0.00,290.60,060423,,"
1680748748,GNSS,0,
1680748750,GNSS,0,
1680748752,GNSS,0,
1680748754,GNSS,0,"$GNRMC,023906.000,A,2649.290452,N,07551.400792,E,0.00,290.60,060423,,,D,V*00"
1680748756,GNSS,0,
1680748758,GNSS,0,"$GNRMC,023907.000,A,2649."
1680748760,GNSS,0,
1680748762,GNSS,0,
1680748764,GNSS,0,"$GNRMC,023908.000,A,2649.290144,N,07551.401936,E,0.00,290.60,060423,,,D,V*0D"
1680748766,GNSS,0,
1680748768,GNSS,0,
1680748770,GNSS,0,
1680748772,GNSS,0,"$GNRMC,023925.000,A,2649.292662,N,07551.400682,E,0.00,290.60,060423,,,D,V*02"
1680748774,GNSS,0,
1680748776,GNSS,0,"$GNRMC,023926.000,A,2649.292662,N,07551.400682,E,0.00"
1680748778,GNSS,0,
1680748780,GNSS,0,
1680748782,GNSS,0,"$GNRMC,023927.000,A,2649.292662,N,07551.400682,E,0.00,290.60,060423,,,D,V*00"
1680748784,GNSS,0,
1680748786,GNSS,0,
1680748788,GNSS,0,
1680748790,GNSS,0,"$GNRMC,023944.000,A,2649.293099,N,07551.399813,E,0.00,290.60,060423,,,D,V*07"
1680748792,GNSS,0,
1680748794,GNSS,0,"$GNRMC,023945.000,A,2649.293099,N"
1680748796,GNSS,0,
1680748798,GNSS,0,
1680748800,GNSS,0,"$GNRMC,023946.000,A,2649.293099,N,07551.399813,E,0.00,290.60,060423,,,D,V*05"
1680748802,GNSS,0,
1680748804,GNSS,0,
1680748806,GNSS,0,"$GNRMC,023947.000,A,2649.293099,N,07551.399813,E,0.00,290.60,060423,,,D,V*04"
1680748809,GNSS,0,
1680748811,GNSS,0,"$GNRMC,024003.000,A,2649.292926,N,07551.399327,E,0.00,290.60,060423,,,D,V*0A"
1680748813,GNSS,0,
1680748815,GNSS,0,"$GNRMC,024004.000,A,2649.292926,N,07551.399327,E,0.00,290.60,060423,,,D,V*0D"
1680748817,GNSS,0,
1680748819,GNSS,0,
1680748821,GNSS,0,"$GNRMC,024005.000,A,2649.292926,N,07551.399327,E,0.00,290.60,060423,,,D,V*0C"
1680748823,GNSS,0,
1680748825,GNSS,0,"$GNRMC,024006.000,A,2649.292926,N"
1680748827,GNSS,0,
1680748829,GNSS,0,"$GNRMC,024022.000,A,2649.292926,N,07551.399327,E,0.00,290.60,060423,,,D,V*09"
1680748831,GNSS,0,
1680748833,GNSS,0,
1680748835,GNSS,0,"$GNRMC,024023.000,A,2649.292926,N,07551.399327,E,0.00,290.60,060423,,,D,V*08"
1680748837,GNSS,0,
1680748839,GNSS,0,"$GNRMC,024024.000,A,2649.292926,N,07551.399327,E,0.00,290.60,06"
1680748841,GNSS,0,
1680748843,GNSS,0,
1680748845,GNSS,0,"$GNRMC,024025.000,A,2649.292926,N,07551.399327,E,0.00,290.60,060423,,,D,V*0E"
1680748847,GNSS,0,
1680748849,GNSS,0,"$GNRMC,024041.000,A,2649.293172,N,07551.399669,E,0.00,290.60,060423,,,D,V*0B"
1680748851,GNSS,0,
1680748853,GNSS,0,"$GNRMC,024042.000,A,2649.293172,N,07551.399669,E,0.00,290.60,060423,,,D,V*08"
1680748855,GNSS,0,
1680748857,GNSS,0,
1680748859,GNSS,0,"$GNRMC,024043.000,A,2649.293707,N,07551.399581,E,0.00,290.60,060423,,,D,V*08"
1680748861,GNSS,0,
1680748863,GNSS,0,"$GNRMC,024044.000,A,"
1680748865,GNSS,0,
1680748867,GNSS,0,
1680748869,GNSS,0,"$GNRMC,024100.000,A,2649.294241,N,07551.399502,E,0.00,290.60,060423,,,D,V*05"
1680748871,GNSS,0,
1680748873,GNSS,0,"$GNRMC,024101.000,A,2649.294241,N,07551.399502,E,0.00,290.6"
1680748875,GNSS,0,
1680748877,GNSS,0,
1680748879,GNSS,0,"$GNRMC,024102.000,A,2649.294241,N,07551.399502,E,0.00,290.60,060423,,,D,V*07"
1680748881,GNSS,0,
1680748883,GNSS,0,
1680748885,GNSS,0,"$GNRMC,024118.000,A,2649.294123,N,07551.399316,E,0.00,290.60,060423,,,D,V*08"
1680748887,GNSS,0,
1680748889,GNSS,0,"$GNRMC,024119.000,A,2649.294123,N,07551.399316,E,0.00,290.60,060423,,,D,V*09"
1680748891,GNSS,0,
1680748893,GNSS,0,
1680748895,GNSS,0,"$GNRMC,024120.000,A,2649.294123,N,07551.399316,E,0.00,290.60,060423,,,D,V*03"
1680748897,GNSS,0,
1680748899,GNSS,0,"$GNRMC,024121.000,A,2649.294123,N,"
1680748901,GNSS,0,
1680748903,GNSS,0,"$GNRMC,024137.000,A,2649.294509,N,07551.400605,E,0.00,290.60,060423,,,D,V*09"
1680748905,GNSS,0,
1680748907,GNSS,0,
1680748909,GNSS,0,"$GNRMC,024138.000,A,2649.294509,N,07551.400605,E,0.00,290.60,060423,,,D,V*06"
1680748911,GNSS,0,
1680748913,GNSS,0,"$GNRMC,02413"
1680748915,GNSS,0,
1680748917,GNSS,0,
1680748919,GNSS,0,"$GNRMC,024140.000,A,2649.294509,N,07551.400605,E,0.00,290.60,060423,,,D,V*09"
1680748921,GNSS,0,
1680748923,GNSS,0,"$GNRMC,024156.000,A,2649.294509,N,07551.400605,E,0.00,290.60,060423,,,D,V*0E"
1680748925,GNSS,0,
1680748927,GNSS,0,
1680748929,GNSS,0,"$GNRMC,024157.000,A,2649.294509,N,07551.400605,E,0.00,290.60,060423,,,D,V*0F"
1680748931,GNSS,0,
1680748933,GNSS,0,"$GNRMC,024158.000,A,2649.294509,N,07551.400605,E,0.00,290.6"
1680748935,GNSS,0,
1680748937,GNSS,0,
1680748939,GNSS,0,"$GNRMC,024159.000,A,2649.294509,N,07551.400605,E,0.00,290.60,060423,,,D,V*01"
1680748941,GNSS,0,
1680748943,GNSS,0,"$GNRMC,024215.000,A,2649.293434,N,07551.399903,E,0.00,290.60,060423,,,D,V*0C"
1680748945,GNSS,0,
1680748947,GNSS,0,
1680748949,GNSS,0,"$GNRMC,024216.000,A,2649.293434,N,07551.399903,E,0.00,290.60,060423,,,D,V*0F"
1680748951,GNSS,0,
1680748953,GNSS,0,"$GNRMC,024217.000,A,2649.293434,N,07551.399903"
1680748955,GNSS,0,
1680748957,GNSS,0,
1680748959,GNSS,0,"$GNRMC,024233.000,A,2649.294132,N,07551.399260,E,0.00,290.60,060423,,,D,V*02"
1680748961,GNSS,0,
1680748963,GNSS,0,"$GNRMC,024234.000,A,2649.294167,N,07551.399357,E,0.00,290.60,060423,,"
1680748965,GNSS,0,
1680748967,GNSS,0,
1680748969,GNSS,0,"$GNRMC,024235.000,A,2649.294274,N,07551.399764,E,0.00,290.60,060423,,,D,V*04"
1680748971,GNSS,0,
1680748973,GNSS,0,
1680748975,GNSS,0,"$GNRMC,024236.000,A,2649.294355,N,07551.400038,E,0.00,290.60,060423,,,D,V*0C"
1680748977,GNSS,0,
1680748979,GNSS,0,"$GNRMC,024252.000,A,2649.294777,N,07551.400589,E,0.00,290.60,060423,,,D,V*05"
1680748981,GNSS,0,
1680748983,GNSS,0,"$GNRMC,0"
1680748985,GNSS,0,
1680748987,GNSS,0,
1680748989,GNSS,0,"$GNRMC,024254.000,A,2649.294777,N,07551.400589,E,0.00,290.60,060423,,,D,V*03"
1680748991,GNSS,0,
1680748993,GNSS,0,
1680748995,GNSS,0,"$GNRMC,024255.000,A,2649.294948,N,07551.401313,E,0.00,290.60,060423,,,D,V*04"
1680748997,GNSS,0,
1680748999,GNSS,0,"$GNRMC,024311.000,A,2649.296624,N,07551.400841,E,0.00,290.60,060423,,,D,V*0F"
1680749001,GNSS,0,
1680749003,GNSS,0,"$GNRMC,024312.000,A,2649.2967"
1680749005,GNSS,0,
1680749007,GNSS,0,
1680749009,GNSS,0,"$GNRMC,024313.000,A,2649.296766,N,07551.400754,E,0.00,290.60,060423,,,D,V*01"
1680749011,GNSS,0,
1680749013,GNSS,0,
1680749015,GNSS,0,
1680749017,GNSS,0,
1680749019,GNSS,0,
1680749021,GNSS,0,
1680749023,GNSS,0,"$GNRMC,024331.000,A,2649.298310,N,07551.399762,E,0.00,290.60,060423,,,D,V*08"
1680749025,GNSS,0,
1680749027,GNSS,0,
1680749029,GNSS,0,"$GNRMC,024332.000,A,2649.298098,N,07551.399893,E,0.00,290.60,060423,,,D,V*09"
1680749031,GNSS,0,
1680749033,GNSS,0,
1680749035,GNSS,0,"$GNRMC,024348.000,A,2649.298193,N,07551.402735,E,0.00,290.60,060423,,,D,V*08"
1680749037,GNSS,0,
1680749039,GNSS,0,"$GNRMC,024349.000,A,2649.298193,N,07551.402735,E,0.00,290.60,060423,,,D,V*09"
1680749042,GNSS,0,
1680749044,GNSS,0,
1680749046,GNSS,0,"$GNRMC,024350.000,A,2649.298193,N,07551.402735,E,0.00,290.60,060423,,,D,V*01"
1680749048,GNSS,0,
1680749050,GNSS,0,"$GNRMC,024"
1680749052,GNSS,0,
1680749054,GNSS,0,
1680749056,GNSS,0,"$GNRMC,024407.000,A,2649.295908,N,07551.402840,E,0.00,290.60,060423,,,D,V*0E"
1680749058,GNSS,0,
1680749060,GNSS,0,"$GNRMC,024408.000,A,2649.295637,N,07551.403095,E,0.00,290.60,060423,,,D,V*03"
1680749062,GNSS,0,
1680749064,GNSS,0,
1680749066,GNSS,0,"$GNRMC,024409.000,A,2649.295475,N,07551.403076,E,0.00,290.60,060423,,,D,V*0B"
1680749068,GNSS,0,
1680749070,GNSS,0,
1680749072,GNSS,0,"$GNRMC,024425.000,A,2649.292898,N,07551.405456,E,0.00,290.60,060423,,,D,V*0D"
1680749074,GNSS,0,
1680749076,GNSS,0,"$GNRMC,024426.000,A,2649.292750,N,07551.405679,E,0.00,290.60,060423,,,D,V*0A"
1680749078,GNSS,0,
1680749080,GNSS,0,
1680749082,GNSS,0,"$GNRMC,024427.000,A,2649.292525,N,07551.405642,E,0.00,290.60,060423,,,D,V*03"
1680749084,GNSS,0,
1680749086,GNSS,0,
1680749088,GNSS,0,
1680749090,GNSS,0,"$GNRMC,0"
1680749092,GNSS,0,
1680749094,GNSS,0,
1680749096,GNSS,0,"$GNRMC,024445.000,A,2649.292324,N,07551.405530,E,0.00,290.60,060423,,,D,V*06"
1680749098,GNSS,0,
1680749100,GNSS,0,
1680749102,GNSS,0,"$GNRMC,024446.000,A,2649.291529,N,07551.405442,E,0.00,290.60,060423,,,D,V*09"
1680749104,GNSS,0,
1680749106,GNSS,0,"$GNRMC,024447.000,A,2649.29"
1680749108,GNSS,0,
1680749110,GNSS,0,"$GNRMC,024503.000,A,2649.290076,N,07551.406814,E,"
1680749112,GNSS,0,
1680749114,GNSS,0,
1680749116,GNSS,0,"$GNRMC,024504.000,A,2649.289312,N,07551.406979,E,0.00,290.60,060423,,,D,V*0F"
1680749118,GNSS,0,
1680749120,GNSS,0,
1680749122,GNSS,0,"$GNRMC,024505.000,A,2649.289257,N,07551.406843,E,0.00,290.60,060423,,,D,V*06"
1680749124,GNSS,0,
1680749126,GNSS,0,
1680749128,GNSS,0,"$GNRMC,024521.000,A,2649.290556,N,07551.404325,E,0.00,290.60,060423,,,D,V*07"
1680749130,GNSS,0,
1680749132,GNSS,0,"$GNRMC,024522.000,A,2649.290766,N,07551.404173,E,0.00,290.60,060423,,,D,V*04"
1680749134,GNSS,0,
1680749136,GNSS,0,
1680749138,GNSS,0,"$GNRMC,024523.000,A,2649.290860,N,07551.404348,E,0.00,290.60,060423,,,D,V*06"
1680749140,GNSS,0,
1680749142,GNSS,0,"$GNRMC,02452"
1680749144,GNSS,0,
1680749146,GNSS,0,"$GNRMC,024540."
1680749148,GNSS,0,
1680749150,GNSS,0,
1680749152,GNSS,0,"$GNRMC,024541.000,A,2649.292063,N,07551.404994,E,0.00,290.60,060423,,,D,V*00"
1680749154,GNSS,0,
1680749156,GNSS,0,
1680749158,GNSS,0,"$GNRMC,024542.000,A,2649.292403,N,07551.405400,E,0.00,290.60,060423,,,D,V*00"
1680749160,GNSS,0,
1680749162,GNSS,0,"$GNRMC,024543.000,A,2649.292252,N,07551"
1680749164,GNSS,0,
1680749166,GNSS,0,"$GNRMC,024559.000,A,2649.291175,N,07551.406524,E,0.00,290.60,060423,,,D,V*09"
1680749168,GNSS,0,
1680749170,GNSS,0,
1680749172,GNSS,0,"$GNRMC,024600.000,A,2649.291364,N,07551.405935,E,0.00,290.60,060423,,,D,V*0B"
1680749174,GNSS,0,
1680749176,GNSS,0,"$GNRMC,024601.000,A,2649.291501"
1680749178,GNSS,0,
1680749180,GNSS,0,
1680749182,GNSS,0,"$GNRMC,024602.000,A,2649.291831,N,07551.406318,E,0.00,290.60,060423,,,D,V*04"
1680749184,GNSS,0,
1680749186,GNSS,0,"$GNRMC,024618.000,A,2649.292006,N,07551.405295,E,0.00,290.60,060423,,,D,V*07"
1680749188,GNSS,0,
1680749190,GNSS,0,"$GNRMC,"
1680749192,GNSS,0,
1680749194,GNSS,0,
1680749196,GNSS,0,"$GNRMC,024620.000,A,2649.291567,N,07551.404425,E,0.00,290.60,060423,,,D,V*01"
1680749198,GNSS,0,
1680749200,GNSS,0,
1680749202,GNSS,0,
1680749204,GNSS,0,
1680749206,GNSS,0,
1680749208,GNSS,0,
1680749210,GNSS,0,"$GNRMC,024638.000,A,2649.291748,N,07551.404243,E,0.00,290.60,060423,,,D,V*01"
1680749212,GNSS,0,
1680749214,GNSS,0,
1680749216,GNSS,0,"$GNRMC,024639.000,A,2649.292119,N,07551.404260,E,0.00,290.60,060423,,,D,V*00"
1680749218,GNSS,0,
1680749220,GNSS,0,
1680749222,GNSS,0,"$GNRMC,024655.000,A,2649.292382,N,07551.407441,E,0.00,290.60,060423,,,D,V*0C"
1680749224,GNSS,0,
1680749226,GNSS,0,
1680749228,GNSS,0,"$GNRMC,024656.000,A,2649.292472,N,07551.407468,E,0.00,290.60,060423,,,D,V*0C"
1680749230,GNSS,0,
1680749232,GNSS,0,
1680749234,GNSS,0,"$GNRMC,024657.000,A,2649.293006,N,07551.406752,E,0.00,290.60,060423,,,D,V*00"
1680749236,GNSS,0,
1680749238,GNSS,0,
1680749240,GNSS,0,
1680749242,GNSS,0,"$GNRMC,024713.000,A,2649.292942,N,07551.404820,E,0.00,88.50,060423,,,D,V*39"
1680749244,GNSS,0,
1680749246,GNSS,0,
1680749248,GNSS,0,"$GNRMC,024714.000,A,2649.293387,N,07551.405151,E,0.00,88.50,060423,,,D,V*32"
1680749250,GNSS,0,
1680749252,GNSS,0,"$GNRMC,024"
1680749254,GNSS,0,
1680749256,GNSS,0,"$GNRMC,024730.000,A,2649.291571,N,07551.401582,E,0.00,88.50,060423,,,D,V*37"
1680749258,GNSS,0,
1680749260,GNSS,0,
1680749262,GNSS,0,"$GNRMC,024731.000,A,2649.291411,N,07551.400268,E,0.00,88.50,060423,,,D,V*33"
1680749264,GNSS,0,
1680749266,GNSS,0,"$GNRMC,02"
1680749268,GNSS,0,
1680749270,GNSS,0,
1680749272,GNSS,0,"$GNRMC,024733.000,A,2649.291309,N,07551.399601,E,0.00,88.50,06"
1680749274,GNSS,0,
1680749276,GNSS,0,"$GNRMC,024748.000,A,2649.291628,N,07551.397679,E,0.00,88.50,060423,,,D,V*38"
1680749278,GNSS,0,
1680749280,GNSS,0,
1680749282,GNSS,0,"$GNRMC,024749.000,A,2649.291591,N,07551.397969,E,0.00,88.50,060423,,,D,V*36"
1680749285,GNSS,0,
1680749287,GNSS,0,"$GNRMC,02"
1680749289,GNSS,0,
1680749291,GNSS,0,"$GNRMC,024805.000,A,2649.291001,N,07551.396773,E,0.00,88.50,060423,,,D,V*39"
1680749293,GNSS,0,
1680749295,GNSS,0,
1680749297,GNSS,0,"$GNRMC,024806.000,A,2649.291506,N,07551.396417,E,0.00,88.50,060423,,,D,V*39"
1680749299,GNSS,0,
1680749301,GNSS,0,
1680749303,GNSS,0,"$GNRMC,024807.000,A,2649.291676,N,07551.396610,E,0.00,88.50,060423,,,D,V*39"
1680749305,GNSS,0,
1680749307,GNSS,0,
1680749309,GNSS,0,"$GNRMC,024822.000,A,2649.291830,N,07551.398515,E,0.00,88.50,060423,,,D,V*3A"
1680749311,GNSS,0,
1680749313,GNSS,0,"$GNRMC,024823.000,A,2649.291616,N,07551.399154,E,0"
1680749315,GNSS,0,
1680749317,GNSS,0,
1680749319,GNSS,0,"$GNRMC,024824.000,A,2649.291044,N,07551.399954,E,0.00,88.50,060423,,,D,V*3F"
1680749321,GNSS,0,
1680749323,GNSS,0,
1680749325,GNSS,0,
1680749327,GNSS,0,
1680749329,GNSS,0,
1680749331,GNSS,0,
1680749333,GNSS,0,"$GNRMC,024841.000,A,2649.290789,N,07551.399312,E,0.00,88"
1680749335,GNSS,0,
1680749337,GNSS,0,
1680749339,GNSS,0,"$GNRMC,024842.000,A,2649.290270,N,07551.399188,E,0.00,88.50,060423,,,D,V*32"
1680749341,GNSS,0,
1680749343,GNSS,0,"$GNRMC,024857.000,A,2649.289490,N,07551.402798,E,0.00,88.50,060423,,,D,V*34"
1680749345,GNSS,0,
1680749347,GNSS,0,
1680749349,GNSS,0,
1680749351,GNSS,0,
1680749353,GNSS,0,"$GNRMC,024859.000,A,2649.289133,N,07551.403768,E,0.00,88.50,"
1680749355,GNSS,0,
1680749357,GNSS,0,
1680749359,GNSS,0,"$GNRMC,024900.000,A,2649.289168,N,07551.404044,E,0.00,88.50,060423,,,D,V*35"
1680749361,GNSS,0,
1680749363,GNSS,0,"$GNRMC,024915.000,A,2649.290469,N,07551.399173,E,0.00,88.50,060423,,,D,V*3B"
1680749365,GNSS,0,
1680749367,GNSS,0,"$GNRMC,024916"
1680749369,GNSS,0,
1680749371,GNSS,0,
1680749373,GNSS,0,"$GNRMC,024917.000,A,2649.290509,N,07551.399415,E,0.00,88.50,060423,,"
1680749375,GNSS,0,
1680749377,GNSS,0,
1680749379,GNSS,0,"$GNRMC,024932.000,A,2649.290604,N,07551.398481,E,0.00,88.50,060423,,,D,V*3E"
1680749381,GNSS,0,
1680749383,GNSS,0,"$GNRMC,024933.000,A,2649.290582,N,07551.397865,E,0.00,"
1680749385,GNSS,0,
1680749387,GNSS,0,
1680749389,GNSS,0,"$GNRMC,024934.000,A,2649.290685,N,07551.397843,E,0.00,88.50,060423,,,D,V*3C"
1680749391,GNSS,0,
1680749393,GNSS,0,
1680749395,GNSS,0,
1680749397,GNSS,0,"$GNRMC,024950.000"
1680749399,GNSS,0,
1680749401,GNSS,0,
1680749403,GNSS,0,"$GNRMC,024951.000,A,2649.290798,N,07551.395448,E,0.00,88.50,060423,,,D,V*3"
1680749405,GNSS,0,
1680749407,GNSS,0,
1680749409,GNSS,0,"$GNRMC,024952.000,A,2649.291366,N,07551.395110,E,0.00,88.50,060423,,,D,V*38"
1680749411,GNSS,0,
1680749413,GNSS,0,
1680749415,GNSS,0,
1680749417,GNSS,0,"$GNRMC,025008.000,A,2649.290175,N,07551.401463,E,0.00,86.72,060423,,,D,V*3B"
1680749419,GNSS,0,
1680749421,GNSS,0,
1680749423,GNSS,0,"$GNRMC,025009.000,A,2649.290321,N,07551.401458,E,0.00,86.72,060423,,,D,V*31"
1680749425,GNSS,0,
1680749427,GNSS,0,
1680749429,GNSS,0,"$GNRMC,025010.000,A,2649.290206,N,07551.403208,E,0.00,86.72,060423,,,D,V*3C"
1680749431,GNSS,0,"$GNRMC,025025.000,A,2649.291209,N,07551.399587,E,0.00,86.72,060423,,,D,V*30"
1680749433,GNSS,0,
1680749435,GNSS,0,
1680749437,GNSS,0,"$GNRMC,025026.000,A,2649.291262,N,07551.399472,E,0.00,86.72,060423,,,D,V*35"
1680749439,GNSS,0,
1680749441,GNSS,0,"$GNRMC,025027.000,A,2649.291254,N,07551.39"
1680749443,GNSS,0,
1680749445,GNSS,0,
1680749447,GNSS,0,"$GNRMC,025028.000,A,2649.291140,N,07551.399715,E,0.00,86.72,060423,,,D,V*3A"
1680749449,GNSS,0,"$GNRMC,025043.000,A,2649.292483,N,07551.387539"
1680749451,GNSS,0,
1680749453,GNSS,0,
1680749455,GNSS,0,"$GNRMC,025044.000,A,2649.292503,N,07551.386346,E,2.61,261.60,060423,,,D,V*01"
1680749457,GNSS,0,
1680749459,GNSS,0,
1680749461,GNSS,0,"$GNRMC,025045.000,A,2649.292466,N,07551.386626,E,0.00,261.60,060423,,,D,V*04"
1680749463,GNSS,0,
1680749465,GNSS,0,
1680749467,GNSS,0,
1680749469,GNSS,0,"$GNRMC,025101.000,A,2649.291672,N,07551.384846,E,0.00,45.18,060423,,,D,V*30"
1680749471,GNSS,0,
1680749473,GNSS,0,
1680749475,GNSS,0,"$GNRMC,025102.000,A,2649.291744,N,07551.384206,E,0.00,45.18,060423,,,D,V*39"
1680749477,GNSS,0,
1680749479,GNSS,0,
1680749481,GNSS,0,"$GNRMC,025103.000,A,2649.291697,N,07551.384514,E,0.00,45.18,060423,,,D,V*33"
1680749483,GNSS,0,
1680749485,GNSS,0,"$GNRMC,025118.000,A,2649.291621,N,07551.383868,E,0.00,45.18,060423,,,D,V*35"
1680749487,GNSS,0,
1680749489,GNSS,0,"$GNRMC,025119.000,A,2649.291359,N,07551.384919,E,0.00,45"
1680749491,GNSS,0,
1680749493,GNSS,0,
1680749495,GNSS,0,"$GNRMC,025120.000,A,2649.291359,N,07551.384919,E,0.00,45.18,060423,,,D,V*34"
1680749497,GNSS,0,
1680749499,GNSS,0,
1680749501,GNSS,0,
1680749503,GNSS,0,"$GNRMC,025136.000,A,2649.292649,N,07551.387755,E,0.00,45.18,060423,,,D,V*31"
1680749505,GNSS,0,
1680749507,GNSS,0,
1680749509,GNSS,0,"$GNRMC,025137.000,A,2649.292683,N,07551.388926,E,0.00,45.18,060423,,,D,V*33"
1680749511,GNSS,0,
1680749513,GNSS,0,"$GNRMC,02"
1680749515,GNSS,0,
1680749517,GNSS,0,
1680749519,GNSS,0,
1680749521,GNSS,0,"$GNRMC,025154.000,A,2649.291188,N,07551.393804,E,0.00"
1680749523,GNSS,0,
1680749525,GNSS,0,
1680749527,GNSS,0,"$GNRMC,025155.000,A,2649.290317,N,07551.397330,E,0.00,45.18,060423,,,D,V*3E"
1680749529,GNSS,0,
1680749531,GNSS,0,
1680749533,GNSS,0,"$GNRMC,025156.000,A,2649.289992,N,07551.399505,E,0.00,45.18,060423,,,D,V*3C"
1680749535,GNSS,0,
1680749537,GNSS,0,
1680749539,GNSS,0,
1680749541,GNSS,0,"$GNRMC,025212.000,A,2649.299936,N,07551.354248,E,8.99,288.57,060423,,,D,V*0F"
1680749543,GNSS,0,
1680749545,GNSS,0,"$GNRMC,025213.000,A,2649."
1680749547,GNSS,0,
1680749549,GNSS,0,
1680749551,GNSS,0,"$GNRMC,025214.000,A,2649.300624,N,07551.347901,E,9.37,281.05,060423,,,D,V*0B"
1680749553,GNSS,0,
1680749555,GNSS,0,
1680749557,GNSS,0,
1680749559,GNSS,0,"$GNRMC,025232.000,V,,,,,0.10,,,,,N,V*32"
1680749561,GNSS,0,
1680749563,GNSS,0,"$GNRMC,025233.000,V,2649.299464,N,07551.346451,E,0.08,286.50,060423,,,E,V*14"
1680749565,GNSS,0,
1680749567,GNSS,0,
1680749569,GNSS,0,"$GNRMC,025234.000,V,,,,,0.06,,,,,N,V*33"
1680749571,GNSS,0,
1680749573,GNSS,0,"$GNRMC,025235.000,V,,,,,11.00,,,,,N,V*04"
1680749575,GNSS,0,
1680749577,GNSS,0,"$GNRMC,025236.000,V,,,,,9.11,,,,,N,V*3E"
1680749579,GNSS,0,"$GNRMC,025253.000,A,2649.288252,N,07551.434961,E,0.00,82.51,060423,,,D,V*34"
1680749581,GNSS,0,
1680749583,GNSS,0,
1680749585,GNSS,0,"$GNRMC,025254.000,A,2649.288493,N,07551.434100,E,0.00,82.51,060423,,,D,V*37"
1680749587,GNSS,0,
1680749589,GNSS,0,
1680749591,GNSS,0,"$GNRMC,025255.000,A,2649.288503,N,07551.433833,E,0.00,82.51,060423,,,D,V*30"
1680749593,GNSS,0,
1680749595,GNSS,0,"$GNRMC,025256.000,A,2649.288728,N,07551.433202,E,0.00,82.51,"
1680749597,GNSS,0,"$GNRMC,025311.000,A,2649.291578,N,07551.421472,E"
1680749599,GNSS,0,
1680749601,GNSS,0,
1680749603,GNSS,0,"$GNRMC,025312.000,A,2649.291684,N,07551.421184,E,2.96,80.88,060423,,,D,V*3B"
1680749605,GNSS,0,
1680749607,GNSS,0,
1680749609,GNSS,0,"$GNRMC,025313.000,A,2649.291597,N,07551.420772,E,2.67,92.95,060423,,,D,V*34"
1680749611,GNSS,0,
1680749613,GNSS,0,
1680749615,GNSS,0,
1680749617,GNSS,0,"$GNRMC,025329.000,A,2649.288996,N,07551.417861,E,0.00,120.93,060423,,,D,V*0C"
1680749619,GNSS,0,
1680749621,GNSS,0,
1680749623,GNSS,0,"$GNRMC,025330.000,A,2649.289235,N,07551.415552,E,0.00,120.93,060423,,,D,V*08"
1680749625,GNSS,0,
1680749627,GNSS,0,
1680749629,GNSS,0,"$GNRMC,025331.000,A,2649.289270,N,07551.413784,E,0.00,120.93,060423,,,D,V*07"
1680749631,GNSS,0,
1680749633,GNSS,0,"$GNRMC,025346.000,A,2649.291845,N,07551.388960,E,0.00,319.42,060423,,,D,V*07"
1680749635,GNSS,0,
1680749637,GNSS,0,
1680749639,GNSS,0,"$GNRMC,025347.000,A,2649.291969,N,07551.389292,E,0.00,319.42,060423,,,D,V*0E"
1680749641,GNSS,0,
1680749643,GNSS,0,"$GNRMC,0253"
1680749645,GNSS,0,
1680749647,GNSS,0,
1680749649,GNSS,0,"$GNRMC,025403.000,A,2649.291243,N,07551.392371,E,0.00,319.42,060423,,,D,V*0C"
1680749651,GNSS,0,
1680749653,GNSS,0,
1680749655,GNSS,0,"$GNRMC,025404.000,A,2649.291243,N,07551.392371,E,0.00,319.42,060423,,,D,V*0B"
1680749657,GNSS,0,
1680749659,GNSS,0,
1680749661,GNSS,0,"$GNRMC,025405.000,A,2649.291243,N,07551.392371,E,0.00,319.42,060423,,,D,V*0A"
1680749663,GNSS,0,
1680749665,GNSS,0,
1680749667,GNSS,0,"$GNRMC,025420.000,A,2649.290948,N,07551.392018,E,0.00,319.42,060423,,,D,V*00"
1680749669,GNSS,0,
1680749671,GNSS,0,"$GNRMC,025421.000,A,2649.290681,N,075"
1680749673,GNSS,0,
1680749675,GNSS,0,
1680749677,GNSS,0,"$GNRMC,025422.000,A,2649.290452,N,07551.394071,E,0.00,319.42,060423,,,D,V*0"
1680749679,GNSS,0,
1680749681,GNSS,0,
1680749683,GNSS,0,"$GNRMC,025437.000,A,2649.291379,N,07551.397281,E,0.00,319.42,060423,,,D,V*08"
1680749685,GNSS,0,
1680749687,GNSS,0,
1680749689,GNSS,0,
1680749691,GNSS,0,
1680749693,GNSS,0,"$GNRMC,025439.000,A,2649.291379,N,07551"
1680749695,GNSS,0,
1680749697,GNSS,0,
1680749699,GNSS,0,
1680749701,GNSS,0,"$GNRMC,025454.000,A,2649.290401,N,07551.395650,E,0.00,319.42,060423,,,D,V*0E"
1680749703,GNSS,0,
1680749705,GNSS,0,"$GNRMC,025455.000,A,2649.290440,N,07551.39"
1680749707,GNSS,0,
1680749709,GNSS,0,
1680749711,GNSS,0,"$GNRMC,025456.000,A,2649.290477,N,07551.395374,E,0.00,319.42,060423,,,D,V*0E"
1680749713,GNSS,0,
1680749715,GNSS,0,
1680749717,GNSS,0,
1680749719,GNSS,0,
1680749721,GNSS,0,"$GNRMC,025512.000,A,2649.291083,N,07551.399172,E,0.00,319.42,060423,,,D,V*09"
1680749723,GNSS,0,
1680749725,GNSS,0,
1680749727,GNSS,0,"$GNRMC,025513.000,A,2649.291083,N,07551.399172,E,0.00,319.42,060423,,,D,V*08"
1680749729,GNSS,0,
1680749731,GNSS,0,
1680749733,GNSS,0,"$GNRMC,025514.000,A,2649.290452,N,07551.399734,E,0.00,319.42,060423,,,D,V*02"
1680749735,GNSS,0,
1680749737,GNSS,0,
1680749739,GNSS,0,
1680749741,GNSS,0,"$GNRMC,025530.000,A,2649.291580,N,07551.400964,E,0.00,319.42,060423,,,D"
1680749743,GNSS,0,
1680749745,GNSS,0,
1680749747,GNSS,0,"$GNRMC,025531.000,A,2649.291372,N,07551.400998,E,0.00,319.42,060423,,,D,V*0E"
1680749749,GNSS,0,
1680749751,GNSS,0,
1680749753,GNSS,0,"$GNRMC,025547.000,A,2649.291034,N,07551.402185,E,0.00,319.42,060423,,,D,V*08"
1680749755,GNSS,0,
1680749757,GNSS,0,"$GNRMC,025548.000,A,2649.290967,"
1680749759,GNSS,0,
1680749761,GNSS,0,
1680749763,GNSS,0,"$GNRMC,025549.000,A,2649.290676,N,07551.402296,E,0.00,319.42,060423,,,D,V*06"
1680749765,GNSS,0,
1680749767,GNSS,0,
1680749769,GNSS,0,"$GNRMC,025550.000,A,2649.290508,N,07551.402441,E,0.00,319.42,060423,,,D,V*08"
1680749771,GNSS,0,
1680749773,GNSS,0,"$GNRMC,025606.000,A,2649.289939,N,07"
1680749775,GNSS,0,
1680749777,GNSS,0,
1680749779,GNSS,0,"$GNRMC,025607.000,A,2649.289939,N,07551.402646,E,0.00,319.42,060423,,,D,V*0A"
1680749781,GNSS,0,
1680749783,GNSS,0,
1680749785,GNSS,0,"$GNRMC,025608.000,A,2649.289972,N,07551.402015,E,0.00,319.42,060423,,,D,V*0A"
1680749787,GNSS,0,
1680749789,GNSS,0,
1680749791,GNSS,0,"$GNRMC,025624.000,A,2649.292058,N,07551.404532,E,0.00,319.42,060423,,,D,V*09"
1680749793,GNSS,0,
1680749795,GNSS,0,"$GNRMC,0"
1680749797,GNSS,0,
1680749799,GNSS,0,
1680749801,GNSS,0,"$GNRMC,025626.000,A,2649.291898,N,07551.404705,E,0.00,319.42,060423,,,D,V*0A"
1680749803,GNSS,0,
1680749805,GNSS,0,
1680749807,GNSS,0,
1680749809,GNSS,0,"$GNRMC,025642.000,A,2649.291482,N,07551.404264,E,0.00,319.42,060423,,,D,V*0D"
1680749811,GNSS,0,
1680749813,GNSS,0,"$GNRMC,025643.000,A,2649.291569,N,07551.403962,E,0.00,319.42,060423,,,D,V*02"
1680749815,GNSS,0,
1680749817,GNSS,0,
1680749819,GNSS,0,"$GNRMC,025644.000,A,2649.291667,N,07551.403726,E,0.00,319.42,060423,,,D,V*06"
1680749821,GNSS,0,
1680749823,GNSS,0,
1680749825,GNSS,0,
1680749827,GNSS,0,"$GNRMC,025700.000,A,2649.292337,N,07551.403915,E,0.00,319.42,060423,,,D,V*0A"
1680749829,GNSS,0,
1680749831,GNSS,0,"$GNRMC,025701.000,A,2649.292229,N,07551.404310,E,0.00,319.42,060423,,,D,V*0D"
1680749833,GNSS,0,
1680749835,GNSS,0,
1680749837,GNSS,0,"$GNRMC,025702.000,A,2649.292248,N,07551.404438,E,0.00,319.42,060423,,,D,V*04"
1680749839,GNSS,0,
1680749841,GNSS,0,
1680749843,GNSS,0,"$GNRMC,025703.000,A,2649.292773,N,07551.404210,E,0.00,319.42,060423,,,D,V*04"
1680749845,GNSS,0,
1680749847,GNSS,0,"$GNRMC,025719.000,A,2649.292767,N,07551.402667,E,0.00,319.42,060423,,,D,V*08"
1680749849,GNSS,0,
1680749851,GNSS,0,
1680749853,GNSS,0,"$GNRMC,025720.000,A,2649.292767,N,07551.402667,E,0.00,319.42,060423,,,D,V*02"
1680749855,GNSS,0,
1680749857,GNSS,0,"$GNRMC,02"
1680749859,GNSS,0,
1680749861,GNSS,0,
1680749863,GNSS,0,"$GNRMC,025737.000,A,2649.293576,N,07551.401060,"
1680749865,GNSS,0,
1680749867,GNSS,0,
1680749869,GNSS,0,"$GNRMC,025738.000,A,2649.293576,N,07551.401060,E,0.00,319.42,060423,,,D,V*0A"
1680749871,GNSS,0,
1680749873,GNSS,0,
1680749875,GNSS,0,"$GNRMC,025739.000,A,2649.293576,N,07551.401060,E,0.00,319.42,060423,,,D,V*0B"
1680749877,GNSS,0,
1680749879,GNSS,0,"$GNRMC,025740.000,A,2"
1680749881,GNSS,0,"$GNRMC,025755.000,A,2649.287924,N,07551.404307,E,0.00,319.42,060423,,,D,V*08"
1680749883,GNSS,0,
1680749885,GNSS,0,"$GNRMC,025756.000,A,2649.288027,N,07551.404065,E,0.00,319.42,060423,,,D"
1680749887,GNSS,0,
1680749889,GNSS,0,
1680749891,GNSS,0,"$GNRMC,025757.000,A,2649.287941,N,07551.404014,E,0.00,319.42,060423,,,D,V*08"
